,Unnamed: 0,headline,city,latitude,longitude,countrycode
0,0,Zika Outbreak Hits Miami,Miami,25.77427,-80.19366,US
1,1,Could Zika Reach New York City?,New York City,40.71427,-74.00597,US
2,2,First Case of Zika in Miami Beach,Miami Beach,25.79065,-80.13005,US
3,3,"Mystery Virus Spreads in Recife, Brazil",Recife,-8.05389,-34.88111,BR
4,4,Dallas man comes down with case of Zika,Dallas,32.78306,-96.80667,US
5,5,Trinidad confirms first Zika case,Trinidad,-14.83333,-64.9,BO
6,6,Zika Concerns are Spreading in Houston,Houston,29.76328,-95.36327,US
7,7,Geneve Scientists Battle to Find Cure,Geneve,46.20222,6.14569,CH
8,8,The CDC in Atlanta is Growing Worried,Atlanta,33.749,-84.38798,US
9,9,Zika Infested Monkeys in Sao Paulo,Sao Paulo,-23.5475,-46.63611,BR
10,10,Brownsville teen contracts Zika virus,Brownsville,25.90175,-97.49748,US
11,11,Mosquito control efforts in St. Louis take new tactics with Zika threat,St. Louis,38.62727,-90.19789,US
12,12,San Juan reports 1st U.S. Zika-related death amid outbreak,San Juan,-31.5375,-68.53639,AR
13,13,"Flu outbreak in Galveston, Texas",Galveston,29.30135,-94.7977,US
14,14,Zika alert - Manila now threatened,Manila,14.6042,120.9822,PH
15,15,Zika afflicts 7 in Iloilo City,Iloilo,10.69694,122.56444,PH
16,16,New Los Angeles Hairstyle goes Viral,Los Angeles,-37.46973,-72.35366,CL
17,18,Orlando volunteers aid Zika research,Orlando,28.53834,-81.37924,US
18,20,Chicago's First Zika Case Confirmed,Chicago,41.85003,-87.65005,US
19,21,Tampa Bay Area Zika Case Count Climbs,Tampa,27.94752,-82.45843,US
20,22,"Bad Water Leads to Sickness in Flint, Michigan",Flint,43.01253,-83.68746,US
21,23,Baltimore plans for Zika virus,Baltimore,39.29038,-76.61219,US
22,24,London Health Unit Tracks Mad Cow Disease,London,51.50853,-0.12574,GB
23,25,Zika cases in Vietnam's Ho Chi Minh City surge,Ho Chi Minh City,10.82302,106.62965,VN
24,26,Philadelphia experts track pandemic,Philadelphia,39.95233,-75.16379,US
25,27,Flu season hits Boston,Boston,42.35843,-71.05977,US
26,28,Scientists in Paris to look for answers,Paris,48.85341,2.3488,FR
27,29,Key Zika Findings in San Diego Institute,San Diego,32.71571,-117.16472,US
28,30,Thailand-Zika Virus in Bangkok,Bangkok,13.75398,100.50144,TH
29,31,Beijing team cracks Zika secret,Beijing,39.9075,116.39723,CN
30,32,Zika spreading to Salvador,Salvador,-12.97111,-38.51083,BR
31,33,Kuala Lumpur is Hit By Zika Threat,Kuala Lumpur,3.1412,101.68653,MY
32,34,First Zika case confirmed in Yangon,Yangon,16.80528,96.15611,MM
33,35,Tallahassee Doctors Discuss Zika Virus,Tallahassee,30.43826,-84.28073,US
34,36,Zika Virus Reaches San Francisco,San Francisco,37.77493,-122.41942,US
35,37,New Vaccine on Trial in Bethesda District,Bethesda,38.98067,-77.10026,US
36,38,Townsville Zika tests inconclusive,Townsville,-19.26639,146.80569,AU
37,39,Mandaluyong City under Siege by Virus,Mandaluyong City,14.5832,121.0409,PH
38,40,Hepatitis E re-emerges in Santa Rosa,Santa Rosa,14.31222,121.11139,PH
39,41,Zika worries in San Salvador,San Salvador,13.68935,-89.18718,SV
40,42,Zika virus reported in Cleveland,Cleveland,41.4995,-81.69541,US
41,43,More Zika patients reported in Austin,Austin,30.26715,-97.74306,US
42,44,"Zika outbreak in Piracicaba, Brazil",Piracicaba,-22.72528,-47.64917,BR
43,45,Lima tries to address Zika Concerns,Lima,-12.04318,-77.02824,PE
44,46,More people in Toronto are infected with Hepatitis E every year,Toronto,43.70011,-79.4163,CA
45,47,18 new Zika Cases in Bogota,Bogota,4.60971,-74.08175,CO
46,49,Brisbane is infested with Meningitis,Brisbane,-27.46794,153.02809,AU
47,50,Cholera outbreak in Dakar,Dakar,14.6937,-17.44406,SN
48,51,Zika Virus Transmission Detected in Havana,Havana,23.13302,-82.38304,CU
49,52,Zika symtomps spotted in Key West,Key West,24.55524,-81.78163,US
50,53,Case of Measles Reported in Vancouver,Vancouver,49.24966,-123.11934,CA
51,54,"Seattle scientists get $500,000 grant to pursue Zika vaccine New 7:50 pm",Seattle,47.60621,-122.33207,US
52,55,Nashville takes precautions against Zika,Nashville,36.16589,-86.78444,US
53,56,Saint Croix under Zika threat,Saint Croix,17.72751,-64.74698,VI
54,57,Fort Collins Encounters Severe Symptoms of Gonorrhea,Fort Collins,40.58526,-105.08442,US
55,58,"Zika surfaces in Klang, Malaysia",Klang,3.03667,101.44333,MY
56,59,Rumors about Meningitis spreading in Guatemala City have been refuted,Guatemala City,14.64072,-90.51327,GT
57,60,Madison lab developing vaccine against Zika virus [The Wisconsin State Journal],Madison,43.07305,-89.40123,US
58,61,New Zika Case Confirmed in Sarasota County,Sarasota,27.33643,-82.53065,US
59,62,Lower Hospitalization in Entebbe after Rabies Vaccine becomes Mandatory,Entebbe,0.05621,32.47949,UG
60,64,Second Zika Paitient in Brasilia,Brasilia,-15.77972,-47.92972,BR
61,65,Jacksonville man hit by Zika,Jacksonville,30.33218,-81.65565,US
62,66,Schools in Shenzhen Closed Due to Malaria Outbreak,Shenzhen,22.54554,114.0683,CN
63,67,Caracas patient dies,Caracas,10.48801,-66.87919,VE
64,68,More Quezon City Zika Transmissions,Quezon City,14.6488,121.0509,PH
65,69,Schools in Sydney Closed Due to Respiratory Syncytial Virus Outbreak,Sydney,-33.86785,151.20732,AU
66,70,Mumbai's Health Minister warns of more Zika cases,Mumbai,19.07283,72.88261,IN
67,71,Pune woman diagnosed with Zika,Pune,18.51957,73.85535,IN
68,72,Hospitals in Hanoi fill up with Zika patients,Hanoi,21.0245,105.84117,VN
69,74,Authorities are Worried about the Spread of Bronchitis in Silver Spring,Silver Spring,38.99067,-77.02609,US
70,75,Zika: Delhi for strict monitoring,Delhi,28.65195,77.23149,IN
71,77,Belize City under threat from Zika,Belize City,17.49952,-88.19756,BZ
72,78,"Student sick in Campinas, Brazil",Campinas,-22.90556,-47.06083,BR
73,79,More Zika cases in Soyapango,Soyapango,13.71024,-89.13989,SV
74,80,Authorities are Worried about the Spread of Mad Cow Disease in Rome,Rome,41.89193,12.51133,IT
75,81,Seoul confirms 14th Zika infection,Seoul,37.566,126.9784,KR
76,82,Hepatitis B Vaccine is now Required in Quebec,Quebec,46.81228,-71.21454,CA
77,83,Zika outbreak spreads to Mexico City,Mexico City,19.42847,-99.12766,MX
78,84,Rochester authorities confirmed the spread of Dengue,Rochester,43.15478,-77.61556,US
79,85,El Paso fighting Zika,El Paso,31.75872,-106.48693,US
80,86,Visitor to Cucuta contracts Zika,Cucuta,7.89391,-72.50782,CO
81,87,Zika now spreading through Jakarta,Jakarta,-6.21462,106.84513,ID
82,89,Salt Lake City tests new cure for Respiratory Syncytial Virus,Salt Lake City,40.76078,-111.89105,US
83,90,Zika San Antonio Patient Speaks Out,San Antonio,29.42412,-98.49363,US
84,91,Ebola outbreak in Kampala,Kampala,0.31628,32.58219,UG
85,92,Precautionary Zika measures in Rockhampton,Rockhampton,-23.38032,150.50595,AU
86,93,Zika arrives in Tegucigalpa,Tegucigalpa,14.0818,-87.20681,HN
87,94,New Zika Case Confirmed in Belo Horizonte,Belo Horizonte,-19.92083,-43.93778,BR
88,95,Case of Hepatitis E Reported in Melbourne,Melbourne,-37.814,144.96332,AU
89,96,First Columbus Zika case,Columbus,39.96118,-82.99879,US
90,97,New medicine wipes out Tuberculosis in Taipei,Taipei,25.04776,121.53185,TW
91,98,"Zika Patient in Seminole, Florida",Seminole,27.83975,-82.79121,US
92,99,Antipolo under threat from Zika Virus,Antipolo,14.62578,121.12251,PH
93,100,Spreading Zika reaches Bacoor,Bacoor,14.45896,120.93851,PH
94,101,Can Zika make it here to Vero Beach?,Can,40.03328,27.05236,TR
95,102,Zika afflicts patient in Calamba,Calamba,14.21167,121.16528,PH
96,103,Hollywood Outbreak Film Premieres,Hollywood,34.09834,-118.32674,US
97,104,Petaling Jaya man ill from Zika,Petaling Jaya,3.10726,101.60671,MY
98,105,Malaria is Spreading in Johannesburg,Johannesburg,-26.20227,28.04363,ZA
99,106,Authorities are Worried about the Spread of Norovirus in Buenos Aires,Buenos Aires,-34.61315,-58.37723,AR
100,107,Guangzhou Patient in Critical Condition after Contracting Swine Flu,Guangzhou,23.11667,113.25,CN
101,108,Doral hit by Deadly Virus,Doral,25.81954,-80.35533,US
102,109,Tokyo Encounters Severe Symptoms of Meningitis,Tokyo,35.6895,139.69171,JP
103,110,Rabies Exposure in Hamilton,Hamilton,43.25011,-79.84963,CA
104,111,Authorities are Worried about the Spread of Influenza in Savannah,Savannah,32.08354,-81.09983,US
105,112,Zika Outbreak in Hyderabad,Hyderabad,17.38405,78.45636,IN
106,113,Birmingham Residents Recieve Rabies vaccine,Birmingham,52.48142,-1.89983,GB
107,114,Is Zika virus in Majuro?,Majuro,7.08971,171.38027,MH
108,115,Spreading Zika ruining Cancun fun,Cancun,21.17429,-86.84656,MX
109,116,Cancun hit by Outbreak of Party Fever!,Cancun,21.17429,-86.84656,MX
110,117,HIV has Arrived in Fairfax,Fairfax,38.84622,-77.30637,US
111,118,Spanish Flu Outbreak in Barcelona,Barcelona,41.38879,2.15899,ES
112,119,Santa Barbara tests new cure for Hepatitis C,Santa Barbara,14.91944,-88.23611,HN
113,120,Spring break ruined by Zika in Fort Lauderdale,Spring,30.07994,-95.41716,US
114,121,Villavicencio under Zika threat,Villavicencio,4.142,-73.62664,CO
115,122,Two more Zika cases confirmed in Laredo,Laredo,27.50641,-99.50754,US
116,123,New Delhi Addressing Zika Concerns,New Delhi,28.63576,77.22445,IN
117,124,"New Zika Case in Kota Kinabalu, Malaysia",Kota Kinabalu,5.9749,116.0724,MY
118,125,New medicine wipes out West Nile Virus in Ventura,Ventura,34.27834,-119.29317,US
119,126,Meningitis re-emerges in Nassau,Nassau,25.05823,-77.34306,BS
120,127,"Zika reaches Johor Bahru, Malaysia",Johor Bahru,1.4655,103.7578,MY
121,128,Nha Trang Zika Outbreak,Nha Trang,12.24507,109.19432,VN
122,129,First Zika Case in Cincinnati,Cincinnati,39.12711,-84.51439,US
123,130,Molo Cholera Spread Causing Concern,Molo,-0.24849,35.73194,KE
124,131,Norovirus Exposure in Hong Kong,Hong Kong,22.27832,114.17469,HK
125,132,19 new Zika Cases in Sengkang,Sengkang,-4.1279,120.0297,ID
126,133,Zika cases concern Charlotte residents,Charlotte,35.22709,-80.84313,US
127,134,Batangas Tourism Takes a Hit as Virus Spreads,Batangas,13.7567,121.0584,PH
128,135,Johannesburg Patient in Critical Condition after Contracting Pneumonia,Johannesburg,-26.20227,28.04363,ZA
129,136,Outbreak of Zika in Bacolod City,Bacolod City,10.66667,122.95,PH
130,137,Respiratory Syncytial Virus Keeps Spreading in Masaya,Masaya,11.97444,-86.09417,NI
131,138,Spike of Pneumonia Cases in Springfield,Springfield,37.21533,-93.29824,US
132,140,Zika case reported in Jupiter,Jupiter,26.93422,-80.09421,US
133,141,Zika virus confirmed in Westchester,Westchester,25.75482,-80.32727,US
134,142,Authorities are Worried about the Spread of Tuberculosis in Abuja,Abuja,9.05785,7.49508,NG
135,143,Rumors about Hepatitis D Spreading in San Juan Capistrano have been Refuted,San Juan Capistrano,33.50169,-117.66255,US
136,144,The Spread of Measles in Spokane has been Confirmed,Spokane,47.65966,-117.42908,US
137,145,Zika alert for Rio Grande Valley residents,Rio Grande,-32.035,-52.09861,BR
138,146,Zika symptoms spotted in Colombo,Colombo,6.93548,79.84868,LK
139,147,West Nile Virus Outbreak in Louisville,Louisville,38.25424,-85.75941,US
140,148,New details in Baton Rouge cop killings,Baton Rouge,30.44332,-91.18747,US
141,149,Hepatitis B has not Left Florence,Florence,43.77925,11.24626,IT
142,150,More Zika patients reported in Pensacola,Pensacola,30.42131,-87.21691,US
143,151,Outbreak of Zika in Corpus Christi,Corpus Christi,27.80058,-97.39638,US
144,152,How to Avoid Rhinovirus in Lemon Grove,Lemon Grove,32.74255,-117.03142,US
145,153,Rumors about Rotavirus spreading in Huntsville have been refuted,Huntsville,34.7304,-86.58594,US
146,154,Rhinovirus has Arrived in Athens,Athens,37.98376,23.72784,GR
147,155,Outbreak of Zika in Panama City,Panama City,30.15946,-85.65983,US
148,157,Measles has not Left Brooklyn,Brooklyn,40.6501,-73.94958,US
149,158,Escondido neighborhood to get sprayed for Zika virus,Escondido,33.11921,-117.08642,US
150,159,"Zika in Belmont, Belmont worry",Belmont,37.52021,-122.2758,US
151,160,Influenza has not Left Sacramento,Sacramento,38.58157,-121.4944,US
152,161,Veracruz hit by Zika Concerns,Veracruz,19.18095,-96.1429,MX
153,162,Case of Mumps Reported in Dayton,Dayton,39.75895,-84.19161,US
154,163,Authorities are Worried about the Spread of Dengue in Kingston,Kingston,17.99702,-76.79358,JM
155,164,Gainesville Deals with Disease Concerns,Gainesville,29.65163,-82.32483,US
156,165,Montevideo Encounters Severe Symptoms of Rotavirus,Montevideo,-34.90328,-56.18816,UY
157,166,Varicella Keeps Spreading in Detroit,Detroit,42.33143,-83.04575,US
158,167,Arhus is infested with Bronchitis,Arhus,56.15674,10.21076,DK
159,168,Zika Troubles come to Niteroi,Niteroi,-22.88333,-43.10361,BR
160,169,Zika cases in Singapore reach 393,Singapore,1.28967,103.85007,SG
161,170,Manhattan Residents Recieve HIV vaccine,Manhattan,40.78343,-73.96625,US
162,171,Zika arrives in Miri,Miri,4.39928,113.99163,MY
163,172,Rumors about Dengue Spreading in Syracuse have been Refuted,Syracuse,43.04812,-76.14742,US
164,173,Will Norovirus vaccine help Raleigh?,Raleigh,35.7721,-78.63861,US
165,174,Lower Hospitalization in Auckland after Hepatitis D Vaccine becomes Mandatory,Auckland,-36.84853,174.76349,NZ
166,175,How to Avoid Gonorrhea in Shreveport,Shreveport,32.52515,-93.75018,US
167,176,Ithaca is infested with Dengue,Ithaca,42.44063,-76.49661,US
168,177,Will MCD vaccine help Strasbourg?,Strasbourg,48.58392,7.74553,FR
169,178,New medicine wipes out Measles in Fresno,Fresno,36.74773,-119.77237,US
170,179,BREAKING - Zika in Missoula,Missoula,46.87215,-113.994,US
171,180,Zika arrives in Santos,Santos,-23.96083,-46.33361,BR
172,181,Sick Livestock Leads to Serious Trouble for Belfort,Belfort,47.64218,6.85385,FR
173,182,Hepatitis E has not Left Libreville,Libreville,0.39241,9.45356,GA
174,183,New medicine wipes out Chikungunya in Tucson,Tucson,32.22174,-110.92648,US
175,184,Norovirus has Arrived in Winnipeg,Winnipeg,49.8844,-97.14704,CA
176,185,Hepatitis B Comes to Kansas City,Kansas City,39.09973,-94.57857,US
177,186,More Patients in Cambridge are Getting Diagnosed with Chickenpox,Cambridge,52.2,0.11667,GB
178,187,Chikungunya Exposure in Toledo,Toledo,41.66394,-83.55521,US
179,188,Is Lafayette prepared to combat Zika?,Lafayette,30.22409,-92.01984,US
180,189,Mecca tests new cure for Chikungunya,Mecca,21.42664,39.82563,SA
181,190,Zika arrives in San Benito,San Benito,16.91675,-89.91898,GT
182,191,Syphilis Outbreak in Harrisburg,Harrisburg,40.2737,-76.88442,US
183,192,Zika Arrives in North Miami,North Miami,25.89009,-80.18671,US
184,193,Urbana Encounters Severe Symptoms of Meningitis,Urbana,40.11059,-88.20727,US
185,194,Pittsburgh Residents Recieve Norovirus vaccine,Pittsburgh,40.44062,-79.99589,US
186,195,Chikungunya Hits Denver,Denver,39.73915,-104.9847,US
187,196,Zika case recorded in Tunapuna >>,Tunapuna,10.65245,-61.38878,TT
188,197,Spike of Respiratory Syncytial Virus Cases in Mandalay,Mandalay,21.97473,96.08359,MM
189,198,HIV Keeps Spreading in Boulder,Boulder,40.01499,-105.27055,US
190,199,More Zika patients reported in Joao Pessoa,Joao Pessoa,-7.115,-34.86306,BR
191,200,Will Tuberculosis vaccine help Rockville?,Rockville,39.084,-77.15276,US
192,201,Mad Cow Disease Re-emerges in Chatham,Chatham,51.37891,0.52786,GB
193,202,Zika Virus Arrives in Ontario,Ontario,34.06334,-117.65089,US
194,203,Mad Cow Disease Hits Naples,Naples,40.85216,14.26811,IT
195,204,More Zika patients reported in Davao,Davao,7.07306,125.61278,PH
196,205,The Spread of Chikungunya in Arcadia has been Confirmed,Arcadia,34.13973,-118.03534,US
197,206,Oxford tests new cure for HIV,Oxford,51.75222,-1.25596,GB
198,207,Outbreak of Zika in Stephenville,Stephenville,32.2207,-98.20226,US
199,208,Providence Encounters Severe Symptoms of Dengue,Providence,41.82399,-71.41283,US
200,209,Tests negative on Windsor Zika carriers,Windsor,42.30008,-83.01654,CA
201,210,Zika battle outlined at Valdosta meeting,Valdosta,30.83334,-83.28032,US
202,211,Zika case reported in Coral Gables,Coral Gables,25.72149,-80.26838,US
203,212,Hepatitis C Outbreak in Danbury,Danbury,41.39482,-73.45401,US
204,213,Chickenpox has Arrived in Chula Vista,Chula Vista,32.64005,-117.0842,US
205,214,Syphilis Hits Jefferson,Jefferson,38.86456,-77.18776,US
206,215,Will HIV vaccine help Las Vegas?,Las Vegas,36.17497,-115.13722,US
207,216,Zika arrives in West Palm Beach,West Palm Beach,26.71534,-80.05337,US
208,217,Mobile authorities confirmed the spread of Bronchitis,Mobile,30.69436,-88.04305,US
209,218,Zika spreads to Daytona Beach,Daytona Beach,29.21081,-81.02283,US
210,219,Lausanne Residents Recieve Meningitis vaccine,Lausanne,46.516,6.63282,CH
211,220,Rhinovirus Comes to San Jose,San Jose,37.33939,-121.89496,US
212,221,Spike of Chlamydia Cases in Farmington,Farmington,36.72806,-108.21869,US
213,222,Authorities are Worried about the Spread of Rotavirus in Union,Union,40.6976,-74.2632,US
214,223,Rumors about Hepatitis D spreading in Albany have been refuted,Albany,42.65258,-73.75623,US
215,224,Zika symptoms spotted in Bello,Bello,6.33732,-75.55795,CO
216,225,Will Meningitis vaccine help Hamburg?,Hamburg,53.57532,10.01534,DE
217,226,Madera Patient in Critical Condition after Contracting Rabies,Madera,36.96134,-120.06072,US
218,227,Zika Virus Detected in Lubbock,Lubbock,33.57786,-101.85517,US
219,228,Malaria re-emerges in Boise,Boise,43.6135,-116.20345,US
220,229,Varicella re-emerges in Lagos,Lagos,6.45407,3.39467,NG
221,230,Vericella spreading in Ibadan,Ibadan,7.37756,3.90591,NG
222,231,Schools in Birmingham Closed Due to Measles Outbreak,Birmingham,52.48142,-1.89983,GB
223,232,How to Avoid Hepatitis B in Waldorf,Waldorf,38.62456,-76.93914,US
224,235,Tuberculosis Outbreak in Newark,Newark,40.73566,-74.17237,US
225,236,Zika Virus Sparks 'International Concern',Sparks,39.53491,-119.75269,US
226,237,Spike of Chlamydia Cases in Berlin,Berlin,52.52437,13.41053,DE
227,238,Zika-carrying mosquitoes discovered in Ardmore,Ardmore,34.17426,-97.14363,US
228,239,"Zika Mosquitoes May Have Bred in Bromeliads, Florida Officials Say",Florida,21.52536,-78.22579,CU
229,240,More Livestock in Fontainebleau are infected with Mad Cow Disease,Fontainebleau,48.40908,2.70177,FR
230,241,Frisco Woman Tests Positive For Zika Virus,Frisco,33.15067,-96.82361,US
231,242,Authorities are Worried about the Spread of Norovirus in Dubai,Dubai,25.07725,55.30927,AE
232,243,Benton Residents Recieve Pneumonia vaccine,Benton,34.56454,-92.58683,US
233,244,Case of Hepatitis A Reported in Calgary,Calgary,51.05011,-114.08529,CA
234,245,Zika Outbreak in Pinewood,Pinewood,25.86898,-80.21699,US
235,246,Will Swine Flu vaccine help Ljubljana?,Ljubljana,46.05108,14.50513,SI
236,247,Bronchitis re-emerges in Tehran,Tehran,35.69439,51.42151,IR
237,249,Mad Cow case in Murcia,Murcia,37.98704,-1.13004,ES
238,250,Mad Cow Disease Spreads to Margate,Margate,51.38132,1.38617,GB
239,251,Zika Strikes St. Petersburg,St. Petersburg,27.77086,-82.67927,US
240,253,Will the Mad Cow Outbreak Reach Vienna?,Vienna,48.20849,16.37208,AT
241,254,More Patients in Orange are Getting Diagnosed with Chickenpox,Orange,33.78779,-117.85311,US
242,255,Lower Hospitalization in Richmond after Mumps Vaccine becomes Mandatory,Richmond,37.55376,-77.46026,US
243,256,Meningitis re-emerges in Medina,Medina,24.46861,39.61417,SA
244,258,Four cases of Zika in Hidalgo County,Hidalgo,25.97205,-100.45029,MX
245,259,Zika symptoms spotted in Hollywood,Hollywood,34.09834,-118.32674,US
246,260,Zika arrives in Oaxaca,Oaxaca,17.06542,-96.72365,MX
247,261,More people in Durham are infected with Chlamydia every year,Durham,35.99403,-78.89862,US
248,262,Authorities are Worried about the Spread of Gonorrhea in Taoyuan City,Taoyuan City,24.99368,121.29696,TW
249,263,Swine Flu re-emerges in La Jolla,La Jolla,32.84727,-117.2742,US
250,264,Tuberculosis Outbreak in Hartford,Hartford,41.76371,-72.68509,US
251,265,Rumors about Mumps Spreading in New Bedford have been Refuted,New Bedford,41.63526,-70.92701,US
252,266,Respiratory Syncytial Virus Vaccine is now Required in Tulsa,Tulsa,36.15398,-95.99277,US
253,267,More people in Indianapolis are infected with Norovirus every year,Indianapolis,39.76838,-86.15804,US
254,268,Lower Hospitalization in Dhaka after Measles Vaccine becomes Mandatory,Dhaka,23.7104,90.40744,BD
255,269,Albany Residents Recieve Respiratory Syncytial Virus vaccine,Albany,42.65258,-73.75623,US
256,271,Rotavirus Vaccine is now Required in Starkville,Starkville,33.45049,-88.81961,US
257,272,Schools in Yaounde Closed Due to Mumps Outbreak,Yaounde,3.86667,11.51667,CM
258,273,More people in Nadi are infected with HIV every year,Nadi,-17.80309,177.41617,FJ
259,274,Tocumen tests new cure for Hepatitis A,Tocumen,9.08939,-79.3831,PA
260,275,Phnom Penh hit by Zika Threat,Phnom Penh,11.56245,104.91601,KH
261,276,Zika Troubles come to Harlingen,Harlingen,26.19063,-97.6961,US
262,277,Zika spreads to Barranquilla,Barranquilla,10.96854,-74.78132,CO
263,278,Milwaukee authorities confirmed the spread of Rhinovirus,Milwaukee,43.0389,-87.90647,US
264,279,Mad Cow Disease Hits Rotterdam,Rotterdam,51.9225,4.47917,NL
265,280,Zika symptoms spotted in Arlington,Arlington,32.73569,-97.10807,US
266,281,West Nile Virus Hits Yogyakarta,Yogyakarta,-7.80139,110.36472,ID
267,282,More Patients in Dublin are Getting Diagnosed with Bronchitis,Dublin,53.33306,-6.24889,IE
268,283,Rumors about Tuberculosis Spreading in Baud have been Refuted,Baud,20.83773,84.32618,IN
269,284,Rumors about West Nile Virus Spreading in Salem have been Refuted,Salem,11.65376,78.15538,IN
270,285,St. Catharines Patient in Critical Condition after Contracting Dengue,St. Catharines,43.17126,-79.24267,CA
271,287,More Zika patients reported in Camacari,Camacari,-12.6975,-38.32417,BR
272,288,Outbreak of Zika in Pasig City,Pasig City,14.58691,121.0614,PH
273,289,Zika Troubles come to Kampong Cham,Kampong Cham,11.99339,105.4635,KH
274,290,Zika case reported in Rizal,Rizal,15.7118,121.1061,PH
275,291,Zika Spreads to Palm Beach Gardens,Palm Beach Gardens,26.82339,-80.13865,US
276,292,More people in Saint Petersburg are infected with Varicella every year,Saint Petersburg,59.93863,30.31413,RU
277,293,Spike of Herpes Cases in Meriden,Meriden,41.53815,-72.80704,US
278,294,Zika case reported in Abilene,Abilene,32.44874,-99.73314,US
279,295,Outbreak of Zika in Palm Springs,Palm Springs,33.8303,-116.54529,US
280,296,Halifax is infested with Swine Flu,Halifax,44.64533,-63.57239,CA
281,297,Zika arrives in Natal,Natal,-5.795,-35.20944,BR
282,298,Herpes Keeps Spreading in Rochester,Rochester,43.15478,-77.61556,US
283,299,Zika case reported in Phetchabun,Phetchabun,16.41904,101.16056,TH
284,300,How to Avoid Pneumonia in Bullhead City,Bullhead City,35.14778,-114.5683,US
285,301,West Nile Virus re-emerges in Wellington,Wellington,-41.28664,174.77557,NZ
286,302,Rumors about Pneumonia spreading in Ottawa have been refuted,Ottawa,45.41117,-75.69812,CA
287,303,Meningitis re-emerges in Summerville,Summerville,33.0185,-80.17565,US
288,304,Pneumonia Symptoms Spread all over Bloomington,Bloomington,44.8408,-93.29828,US
289,305,More Patients in Stuttgart are Getting Diagnosed with Rabies,Stuttgart,48.78232,9.17702,DE
290,306,Schools in Glasgow Closed Due to Hepatitis B Outbreak,Glasgow,55.86515,-4.25763,GB
291,307,Phoenix Residents Recieve Syphilis vaccine,Phoenix,33.44838,-112.07404,US
292,309,Spanish flu spreading in Madrid,Madrid,40.4165,-3.70256,ES
293,310,Rabies Hits Madrid,Madrid,40.4165,-3.70256,ES
294,311,Zika Outbreak in Weslaco,Weslaco,26.15952,-97.99084,US
295,312,How to Avoid Chlamydia in Santiago,Santiago,-33.45694,-70.64827,CL
296,313,Rotavirus Vaccine is now Required in Las Cumbres,Las Cumbres,9.08916,-79.52809,PA
297,314,Mumps Symptoms Spread all over Jefferson,Jefferson,38.86456,-77.18776,US
298,315,Mad Cow Outbreak Spreading in Ennis,Ennis,52.84361,-8.98639,IE
299,316,Southampton Patient in Critical Condition after Contracting Tuberculosis,Southampton,50.90395,-1.40428,GB
300,317,The Spread of Rhinovirus in Boardman has been Confirmed,Boardman,41.02423,-80.66285,US
301,318,Richland Center is infested with Hepatitis B,Richland,46.28569,-119.28446,US
302,319,Authorities are Worried about the Spread of Chickenpox in Richmond,Richmond,37.55376,-77.46026,US
303,320,Chikungunya re-emerges in Kobe,Kobe,34.6913,135.183,JP
304,321,Malaria Vaccine is now Required in Schenectady,Schenectady,42.81424,-73.93957,US
305,322,Hepatitis D has Arrived in Grenoble,Grenoble,45.17869,5.71479,FR
306,323,West Nile Virus Symptoms Spread all over Yerevan,Yerevan,40.18111,44.51361,AM
307,324,Zika Outbreak in Sincelejo,Sincelejo,9.30472,-75.39778,CO
308,325,Rumors about HIV spreading in Montpellier have been refuted,Montpellier,43.61092,3.87723,FR
309,326,Praia tests new cure for Pneumonia,Praia,14.93152,-23.51254,CV
310,328,Lower Hospitalization in Lakewood after Hepatitis B Vaccine becomes Mandatory,Lakewood,39.70471,-105.08137,US
311,329,Zika spreads to Kuching,Kuching,1.55,110.33333,MY
312,330,Spike of Rotavirus Cases in Omaha,Omaha,41.25626,-95.94043,US
313,331,Tuberculosis re-emerges in Silver Springs,Springs,-26.25,28.4,ZA
314,332,Will West Nile Virus vaccine help Coronado?,Coronado,32.68589,-117.18309,US
315,333,Zika case confirmed in Lorain,Lorain,41.45282,-82.18237,US
316,334,Chickenpox Hits Simpsonville,Simpsonville,34.73706,-82.25428,US
317,335,Framingham Residents Receive Measles vaccine,Framingham,42.27926,-71.41617,US
318,336,Rumors about Mad Cow Disease Brighton have been Refuted,Brighton,50.82838,-0.13947,GB
319,337,Zika case reported in Jacobina,Jacobina,-11.18143,-40.51372,BR
320,338,Bridgeport authorities confirmed the spread of West Nile Virus,Bridgeport,41.17923,-73.18945,US
321,340,Measles Vaccine is now Required in Wailuku,Wailuku,20.89133,-156.50604,US
322,341,Zika symptoms spotted in Surat,Surat,21.19594,72.83023,IN
323,343,More contaminated cattle reported in Bedford,Bedford,52.13459,-0.46632,GB
324,344,Zika in Tamarac!,Tamarac,26.21286,-80.24977,US
325,345,Will Measles vaccine help Milford?,Milford,41.22232,-73.0565,US
326,346,Spike of Norovirus Cases in Huddersfield,Huddersfield,53.64904,-1.78416,GB
327,347,Rhinovirus Hits Bakersfield,Bakersfield,35.37329,-119.01871,US
328,348,Lower Hospitalization in Papeete after Measles Vaccine becomes Mandatory,Papeete,-17.53733,-149.5665,PF
329,349,Zika arrives in Udon Thani,Udon Thani,17.41567,102.78589,TH
330,350,Spike of Dengue Cases in Stockholm,Stockholm,59.33258,18.0649,SE
331,351,More people in Berkeley are infected with Swine Flu every year,Berkeley,37.87159,-122.27275,US
332,353,Zika only the latest mosquito-borne threat to New Orleans,New Orleans,29.95465,-90.07507,US
333,354,Will Swine Flu vaccine help Annapolis?,Annapolis,38.97845,-76.49218,US
334,355,Lower Hospitalization in Monroe after Hepatitis D Vaccine becomes Mandatory,Monroe,32.50931,-92.1193,US
335,356,New medicine wipes out Dengue in Saginaw,Saginaw,43.41947,-83.95081,US
336,357,Spike of Rhinovirus Cases in Sevierville,Sevierville,35.86815,-83.56184,US
337,358,Duisburg up in Arms over Mad Cow Disease,Duisburg,51.43247,6.76516,DE
338,359,New medicine wipes out Mumps in Saint Charles,Saint Charles,38.78394,-90.48123,US
339,360,Case of Chikungunya Reported in Gaithersburg,Gaithersburg,39.14344,-77.20137,US
340,361,How to Avoid Respiratory Syncytial Virus in San Bernardino,San Bernardino,34.10834,-117.28977,US
341,362,Laventille authorities confirmed the spread of Rhinovirus,Laventille,10.64917,-61.49889,TT
342,363,More Zika patients reported in Waco,Waco,31.54933,-97.14667,US
343,364,Will Herpes vaccine help Newcastle?,Newcastle,-27.75796,29.9318,ZA
344,365,Erie County sets Zika traps,Erie,42.12922,-80.08506,US
345,367,How to Avoid Norovirus in Greenville,Greenville,35.61266,-77.36635,US
346,368,More Zika patients reported in Calumpang,Calumpang,14.6228,121.0897,PH
347,369,Zika symptoms spotted in Quisqueya,Quisqueya,18.55542,-69.40814,DO
348,370,Rumors about Hepatitis D Spreading in Montreal have been Refuted,Montreal,45.50884,-73.58781,CA
349,371,Zika symptoms spotted in Fortaleza,Fortaleza,-3.71722,-38.54306,BR
350,372,Rumors about Bronchitis spreading in Bundaberg have been refuted,Bundaberg,-24.86621,152.3479,AU
351,373,Hepatitis A re-emerges in Stamford,Stamford,41.05343,-73.53873,US
352,374,Schools in Huntington Closed Due to Rotavirus Outbreak,Huntington,38.41925,-82.44515,US
353,375,Will Mad Cow Vaccine Help Bristol?,Bristol,51.45523,-2.59665,GB
354,376,Chickenpox Comes to Stillwater,Stillwater,36.11561,-97.05837,US
355,377,The Spread of Meningitis in Imperial has been Confirmed,Imperial,-13.05927,-76.35269,PE
356,380,Case of Measles Reported in Springdale,Springdale,36.18674,-94.12881,US
357,381,Norwalk Encounters Severe Symptoms of Malaria,Norwalk,33.90224,-118.08173,US
358,382,Zika arrives in Orange City,Orange,33.78779,-117.85311,US
359,383,Pilsen Encounters Severe Symptoms of Malaria,Pilsen,49.74747,13.37759,CZ
360,384,Will Hepatitis B vaccine help La Paz?,La Paz,-16.5,-68.15,BO
361,385,Zika Outbreak in Puducherry,Puducherry,11.93381,79.82979,IN
362,386,More Zika patients reported in Carrollton,Carrollton,32.95373,-96.89028,US
363,387,Will Rabies vaccine help Tangier?,Tangier,35.76727,-5.79975,MA
364,388,Zika symptoms spotted in Iquitos,Iquitos,-3.74912,-73.25383,PE
365,389,West Nile Virus Exposure in Racine,Racine,42.72613,-87.78285,US
366,390,The Spread of Hepatitis E in Lansing has been Confirmed,Lansing,42.73253,-84.55553,US
367,391,West Nile Virus Exposure in Alpharetta,Alpharetta,34.07538,-84.29409,US
368,392,Pedro Juan Caballero Encounters Severe Symptoms of Pneumonia,Pedro Juan Caballero,-22.54722,-55.73333,PY
369,393,More Zika patients reported in Melbourne,Melbourne,-37.814,144.96332,AU
370,394,Zika Troubles come to La Libertad,La Libertad,-2.233,-80.91039,EC
371,395,Herpes Vaccine is now Required in Mattoon,Mattoon,39.48309,-88.37283,US
372,396,Kent is infested with Rabies,Kent,47.38093,-122.23484,US
373,397,Zika symptoms spotted in Bonita Springs,Bonita Springs,26.33981,-81.7787,US
374,398,The Spread of Malaria in Brazzaville has been Confirmed,Brazzaville,-4.26613,15.28318,CG
375,399,More Zika patients reported in Fort Myers,Fort Myers,26.62168,-81.84059,US
376,400,Zika spreads to Lewisville,Lewisville,33.04623,-96.99417,US
377,401,Ogden is infested with Gonorrhea,Ogden,41.223,-111.97383,US
378,402,Fort Hood Reports its First Zika Patient,Fort Hood,31.13489,-97.77561,US
379,403,Huzhou Residents Receive Hepatitis B vaccine,Huzhou,30.8703,120.0933,CN
380,404,New medicine wipes out Rabies in Newburgh,Newburgh,41.50343,-74.01042,US
381,405,Iowa City Encounters Severe Symptoms of Rhinovirus,Iowa City,41.66113,-91.53017,US
382,406,Spike of Rabies Cases in Managua,Managua,12.13282,-86.2504,NI
383,407,Outbreak of Zika in Santa Elena,Santa Elena,-2.22622,-80.85873,EC
384,408,Mumps Hits Howard Beach,Howard Beach,40.65788,-73.83625,US
385,409,The Spread of Gonorrhea in Reno has been Confirmed,Reno,39.52963,-119.8138,US
386,410,How to Avoid Rhinovirus in Plainfield,Plainfield,40.63371,-74.40737,US
387,411,Rumors about Varicella spreading in Carlsbad have been refuted,Carlsbad,33.15809,-117.35059,US
388,412,Scranton authorities confirmed the spread of Gonorrhea,Scranton,41.40916,-75.6649,US
389,413,Mad Cow Disease Disastrous to Brussels,Brussels,50.85045,4.34878,BE
390,414,Zika spreads to Olinda,Olinda,-8.00889,-34.85528,BR
391,415,Hallandale Beach a Victim of Zika Outbreak,Hallandale Beach,25.9812,-80.14838,US
392,416,Rhinovirus re-emerges in Storrs,Storrs,41.80843,-72.24952,US
393,417,Germantown authorities confirmed the spread of Chickenpox,Germantown,39.17316,-77.27165,US
394,418,Rumors about Rotavirus spreading in North Platte have been refuted,North Platte,41.12389,-100.76542,US
395,419,Spike of Hepatitis C Cases in Golden,Golden,39.75554,-105.2211,US
396,420,Authorities are Worried about the Spread of Hepatitis D in Ganja,Ganja,40.68278,46.36056,AZ
397,421,Dengue Exposure in Kathmandu,Kathmandu,27.70169,85.3206,NP
398,422,Tuberculosis has Arrived in Fairfield,Fairfield,38.24936,-122.03997,US
399,423,Outbreak of Zika in Kozhikode,Kozhikode,11.24802,75.7804,IN
400,424,Bronchitis Symptoms Spread all over Santa Fe,Santa Fe,-31.64881,-60.70868,AR
401,425,More Patients in Alexandria are Getting Diagnosed with Mumps,Alexandria,31.20176,29.91582,EG
402,426,Pneumonia Exposure in Alhambra,Alhambra,33.49838,-112.13432,US
403,427,Hepatitis C re-emerges in Damascus,Damascus,33.5102,36.29128,SY
404,428,Lower Hospitalization in Pekanbaru after Rotavirus Vaccine becomes Mandatory,Pekanbaru,0.51667,101.44167,ID
405,430,Schools in Bentonville Closed Due to Hepatitis B Outbreak,Bentonville,36.37285,-94.20882,US
406,431,Hepatitis E Hits Hammond,Hammond,41.58337,-87.50004,US
407,432,Schools in Bridgeton Closed Due to Mumps Outbreak,Bridgeton,39.42734,-75.23408,US
408,433,Biloxi Residents Recieve Chlamydia vaccine,Biloxi,30.39603,-88.88531,US
409,434,Case of Mad Cow Disease Reported in Hilden,Hilden,51.16818,6.93093,DE
410,435,Rumors about Rabies Spreading in Khartoum have been Refuted,Khartoum,15.55177,32.53241,SD
411,436,Harare is infested with Pneumonia,Harare,-17.82772,31.05337,ZW
412,437,Zika symptoms spotted in Sibu,Sibu,2.3,111.81667,MY
413,438,Zika arrives in Quezon,Quezon,7.73028,125.09889,PH
414,439,More Patients in Crawfordsville are Getting Diagnosed with Rabies,Crawfordsville,40.04115,-86.87445,US
415,440,Spike of Hepatitis B Cases in Greenville,Greenville,35.61266,-77.36635,US
416,441,Authorities are Worried about the Spread of Hepatitis D in Akron,Akron,41.08144,-81.51901,US
417,442,More Zika patients reported in Nuevo Laredo,Nuevo Laredo,27.47629,-99.51639,MX
418,443,Bronchitis Keeps Spreading in San Mateo,San Mateo,14.6982,121.1236,PH
419,444,Zika arrives in Boca Raton,Boca Raton,26.35869,-80.0831,US
420,445,Bradenton Experiences Zika Troubles,Bradenton,27.49893,-82.57482,US
421,446,Chlamydia Symptoms Spread all over University City,University City,38.65588,-90.30928,US
422,447,Wisconsin Rapids Patient in Critical Condition after Contracting Chickenpox,Wisconsin Rapids,44.38358,-89.81735,US
423,448,Zika spreads to Kissimmee,Kissimmee,28.30468,-81.41667,US
424,449,Herpes Symptoms Spread all over Fremont,Fremont,37.54827,-121.98857,US
425,450,Spike of Pneumonia Cases in The Bronx,The Bronx,40.84985,-73.86641,US
426,451,Authorities are Worried about the Spread of Hepatitis D in North Bay,North Bay,46.3168,-79.46633,CA
427,452,The Spread of Herpes in Baku has been Confirmed,Baku,40.37767,49.89201,AZ
428,453,Will Measles vaccine help Sochi?,Sochi,43.59917,39.72569,RU
429,454,Tuberculosis Symptoms Spread all over Caguas,Caguas,18.23412,-66.0485,PR
430,455,HIV has Arrived in Tacoma,Tacoma,47.25288,-122.44429,US
431,456,Malaria re-emerges in Nashua,Nashua,42.76537,-71.46757,US
432,457,Arvada is infested with Syphilis,Arvada,39.80276,-105.08748,US
433,458,Spike of Syphilis Cases in West Monroe,Monroe,32.50931,-92.1193,US
434,459,More Zika patients reported in Ribeirao Preto,Ribeirao Preto,-21.1775,-47.81028,BR
435,461,Deerfield tests new cure for Measles,Deerfield,42.17114,-87.84451,US
436,462,Contaminated Meat Brings Trouble for Bonn Farmers,Bonn,50.73438,7.09549,DE
437,464,Hepatitis A re-emerges in Foster City,Foster City,37.55855,-122.27108,US
438,465,How to Avoid Tuberculosis in Santa Monica,Santa Monica,34.01945,-118.49119,US
439,466,Zika reported in Fort Pierce,Fort Pierce,27.44671,-80.32561,US
440,467,Authorities are Worried about the Spread of Syphilis in Pyongyang,Pyongyang,39.03385,125.75432,KP
441,468,Zika spreads to Winter Park,Winter Park,28.6,-81.33924,US
442,469,Durango is infested with Hepatitis B,Durango,43.17124,-2.6338,ES
443,470,Hepatitis A has not Left Staten Island,Staten Island,40.56233,-74.13986,US
444,471,Mpika authorities confirmed the spread of Chikungunya,Mpika,-11.83431,31.45287,ZM
445,472,Gladstone Encounters Severe Symptoms of Dengue,Gladstone,-23.84852,151.25775,AU
446,473,Mad Cow Disease Hits London,London,51.50853,-0.12574,GB
447,474,New Milford Patient in Critical Condition after Contracting Respiratory Syncytial Virus,New Milford,40.9351,-74.01903,US
448,475,More people in Palo Alto are infected with HIV every year,Palo Alto,37.44188,-122.14302,US
449,476,HIV Symptoms Spread all over Hinthada,Hinthada,17.64944,95.45705,MM
450,477,Zika symptoms spotted in Quito,Quito,-0.22985,-78.52495,EC
451,478,Vineland authorities confirmed the spread of Chlamydia,Vineland,39.48623,-75.02573,US
452,479,"Sulu, Zamboanga brace for Zika",Zamboanga,6.91028,122.07389,PH
453,480,More Zika patients reported in Custodia,Custodia,-8.0875,-37.64306,BR
454,481,Tupelo Residents Recieve Syphilis vaccine,Tupelo,34.25807,-88.70464,US
455,483,Spanish Flu Outbreak in Lisbon,Lisbon,38.71667,-9.13333,PT
456,484,Spanish Flu Spreading through Madrid,Madrid,40.4165,-3.70256,ES
457,485,Barcelona Struck by Spanish Flu,Barcelona,41.38879,2.15899,ES
458,486,Spanish Flu Outbreak in Lisbon,Lisbon,38.71667,-9.13333,PT
459,487,Spanish Flu Spreading through Madrid,Madrid,40.4165,-3.70256,ES
460,488,Barcelona Struck by Spanish Flu,Barcelona,41.38879,2.15899,ES
461,489,The Spread of Dengue in Yakima has been Confirmed,Yakima,46.60207,-120.5059,US
462,490,Tuberculosis Hits Luanda,Luanda,-8.83682,13.23432,AO
463,491,Will West Nile Virus vaccine help Dumai?,Dumai,1.66711,101.44316,ID
464,492,Rumors about Chlamydia spreading in Redmond have been refuted,Redmond,47.67399,-122.12151,US
465,493,Case of Varicella Reported in Concord,Concord,37.97798,-122.03107,US
466,494,Zika virus case reported in Rockland,Rockland,42.13066,-70.91616,US
467,495,Zika investigators coming to Mankato,Mankato,44.15906,-94.00915,US
468,496,Toms River Encounters Severe Symptoms of Respiratory Syncytial Virus,Toms River,39.95373,-74.19792,US
469,497,The Spread of Malaria in Zanzibar has been Confirmed,Zanzibar,-6.16394,39.19793,TZ
470,498,Malaria Outbreak Hits Zanzibar's Tourist Industry,Zanzibar,-6.16394,39.19793,TZ
471,499,Tourist Perishes from Malaria in Arusha,Arusha,-3.36667,36.68333,TZ
472,500,Herpes Symptoms Spread all over New Kingston,New Kingston,18.00747,-76.78319,JM
473,501,More people in Yokohama are infected with Norovirus every year,Yokohama,35.43333,139.65,JP
474,502,More people in Kitwe are infected with Respiratory Syncytial Virus every year,Kitwe,-12.80243,28.21323,ZM
475,503,Hepatitis D Keeps Spreading in Bismarck,Bismarck,46.80833,-100.78374,US
476,504,Varicella Outbreak in Minot,Minot,48.23251,-101.29627,US
477,505,Malaria has Arrived in Terrebonne,Terrebonne,45.70004,-73.64732,CA
478,506,Chikungunya Keeps Spreading in North Vancouver,North Vancouver,49.31636,-123.06934,CA
479,507,Authorities are Worried about the Spread of Chickenpox in Hemet,Hemet,33.74761,-116.97307,US
480,510,Rumors about Hepatitis C spreading in Darien have been refuted,Darien,41.75198,-87.97395,US
481,511,The Spread of West Nile Virus in Fairfield has been Confirmed,Fairfield,38.24936,-122.03997,US
482,512,Princeton Encounters Severe Symptoms of Dengue,Princeton,40.34872,-74.65905,US
483,513,Norovirus Keeps Spreading in Copenhagen,Copenhagen,55.67594,12.56553,DK
484,514,Wuhan is infested with Varicella,Wuhan,30.58333,114.26667,CN
485,515,Zika spreads to San Luis Potosi,San Luis Potosi,22.14982,-100.97916,MX
486,517,Spike of Norovirus Cases in Canberra,Canberra,-35.28346,149.12807,AU
487,518,Zika Troubles come to Greater Noida,Greater Noida,28.49615,77.53601,IN
488,519,Lower Hospitalization in Palm Springs after Hepatitis A Vaccine becomes Mandatory,Palm Springs,33.8303,-116.54529,US
489,521,Outbreak of Zika in Leesburg,Leesburg,39.11566,-77.5636,US
490,522,Authorities are Worried about the Spread of Tuberculosis in Cantu,Cantu,45.74096,9.13084,IT
491,524,New medicine wipes out HIV in Kihei,Kihei,20.76462,-156.44578,US
492,525,Sangre Grande Residents Recieve Gonorrhea vaccine,Sangre Grande,10.58705,-61.13008,TT
493,526,Outbreak of Zika in Colombo,Colombo,6.93548,79.84868,LK
494,527,Will Rotavirus vaccine help Addis Ababa?,Addis Ababa,9.02497,38.74689,ET
495,528,Stony Brook University experts discuss Zika virus,University,28.07389,-82.43902,US
496,529,Lower Hospitalization in Janesville after Varicella Vaccine becomes Mandatory,Janesville,42.68279,-89.01872,US
497,530,Rabies Outbreak in Altus,Altus,34.63813,-99.33398,US
498,531,Miami resident suggests Zika precautions,Miami,25.77427,-80.19366,US
499,532,Zika Troubles come to Jaen,Jaen,15.3275,120.9192,PH
500,533,Hepatitis B Exposure in Edinburgh,Edinburgh,55.95206,-3.19648,GB
501,534,Zika case reported in Reynosa,Reynosa,26.08061,-98.28835,MX
502,535,Schools in Tulare Closed Due to Mumps Outbreak,Tulare,36.20773,-119.34734,US
503,536,More Zika patients reported in Chennai,Chennai,13.08784,80.27847,IN
504,537,Hepatitis D Keeps Spreading in Danvers,Danvers,42.57509,-70.93005,US
505,538,Authorities a Miami,Miami,25.77427,-80.19366,US
506,539,Zika case reported in Medellin,Medellin,6.25184,-75.56359,CO
507,540,Spike of Tuberculosis Cases in Albuquerque,Albuquerque,35.08449,-106.65114,US
508,541,More people in Cranford are infected with Hepatitis A every year,Cranford,40.65844,-74.29959,US
509,542,West Nile Virus Hits Monroe,Monroe,32.50931,-92.1193,US
510,543,Pneumonia Outbreak in Springville,Springville,40.16523,-111.61075,US
511,544,Zika arrives in San Onofre,San Onofre,9.73586,-75.52626,CO
512,545,Lung Cancer Rates Increasing in Moscow,Moscow,55.75222,37.61556,RU
513,546,Rumors about Rotavirus Spreading in Joliet have been Refuted,Joliet,41.52519,-88.0834,US
514,547,More Zika patients reported in Chanthaburi,Chanthaburi,12.60961,102.10447,TH
515,548,Lawrenceville is infested with Dengue,Lawrenceville,33.95621,-83.98796,US
516,549,Zika Reported in Ciudad Acuna,Ciudad Acuna,29.32322,-100.95217,MX
517,550,Zika case reported in Limoeiro,Limoeiro,-7.87472,-35.45028,BR
518,551,Ibadan tests new cure for Malaria,Ibadan,7.37756,3.90591,NG
519,552,Gonorrhea has Arrived in Avon Lake,Avon Lake,41.50532,-82.0282,US
520,553,Pneumonia has not Left Kinshasa,Kinshasa,-4.32758,15.31357,CD
521,554,Respiratory Syncytial Virus Hits Henderson,Henderson,36.0397,-114.98194,US
522,555,More Zika patients reported in Lakeland,Lakeland,28.03947,-81.9498,US
523,556,Malaria Vaccine is now Required in Winona,Winona,44.04996,-91.63932,US
524,557,More Patients in Canton are Getting Diagnosed with Norovirus,Canton,42.30865,-83.48216,US
525,558,Ronkonkoma is infested with Chickenpox,Ronkonkoma,40.81538,-73.11233,US
526,559,Kedougou tests new cure for Hepatitis C,Kedougou,12.55561,-12.18076,SN
527,560,Gonorrhea Exposure in Norwalk,Norwalk,33.90224,-118.08173,US
528,561,How to Avoid Rhinovirus in Medford,Medford,42.32652,-122.87559,US
529,562,Hepatitis D Symptoms Spread all over Evansville,Evansville,37.97476,-87.55585,US
530,563,New medicine wipes out Herpes in Bossier City,Bossier City,32.51599,-93.73212,US
531,564,Pneumonia Exposure in San Jose,San Jose,37.33939,-121.89496,US
532,565,Authorities are Worried about the Spread of Mad Cow Disease in Edinburgh,Edinburgh,55.95206,-3.19648,GB
533,566,Duluth Patient in Critical Condition after Contracting Rotavirus,Duluth,46.78327,-92.10658,US
534,568,Norfolk tests new cure for Herpes,Norfolk,36.84681,-76.28522,US
535,569,More Zika patients reported in Botucatu,Botucatu,-22.88583,-48.445,BR
536,570,Manassas Encounters Severe Symptoms of Measles,Manassas,38.75095,-77.47527,US
537,571,Fayetteville authorities confirmed the spread of HIV,Fayetteville,35.05266,-78.87836,US
538,572,Varicella Exposure in Cambridge,Cambridge,52.2,0.11667,GB
539,573,Hepatitis A Vaccine is now Required in Fukushima,Fukushima,37.75,140.46667,JP
540,574,Zika Outbreak in South Miami,Miami,25.77427,-80.19366,US
541,575,Hepatitis D Symptoms Spread all over North Bethesda,North Bethesda,39.04455,-77.11887,US
542,576,Panama City's first Zika related death,Panama City,30.15946,-85.65983,US
543,577,West Nile Virus has Arrived in Dongguan,Dongguan,23.01797,113.74866,CN
544,578,Zika arrives in Belmopan,Belmopan,17.25,-88.76667,BZ
545,579,Zika seminars in Yuma County,Yuma,32.72532,-114.6244,US
546,580,Rumors about Hepatitis E Spreading in Morristown have been Refuted,Morristown,36.21398,-83.29489,US
547,581,Mumps Outbreak in Joplin,Joplin,37.08423,-94.51328,US
548,583,Authorities are Worried about the Spread of Mumps in Corona,Corona,33.87529,-117.56644,US
549,584,Schools in Danville Closed Due to Tuberculosis Outbreak,Danville,37.82159,-121.99996,US
550,586,Marquette tests new cure for Hepatitis A,Marquette,46.54354,-87.39542,US
551,587,Norovirus Vaccine is now Required in Anaheim,Anaheim,33.83529,-117.9145,US
552,588,Zika Outbreak in Manaus,Manaus,-3.10194,-60.025,BR
553,589,Zika spreads to Caucasia,Caucasia,7.98654,-75.19349,CO
554,590,Case of Malaria Reported in Aurora,Aurora,39.72943,-104.83192,US
555,591,Manchester Residents Recieve Influenza vaccine,Manchester,53.48095,-2.23743,GB
556,592,Zika spreads to Kamphaeng Phet,Kamphaeng Phet,16.48344,99.52153,TH
557,593,Rotavirus Vaccine is now Required in Labasa,Labasa,-16.4332,179.36451,FJ
558,594,The Spread of Hepatitis E in Fargo has been Confirmed,Fargo,46.87719,-96.7898,US
559,595,Zika Outbreak in Mexicali,Mexicali,32.62781,-115.45446,MX
560,596,West Nile Virus Keeps Spreading in Hauppauge,Hauppauge,40.82565,-73.20261,US
561,597,Bronchitis Keeps Spreading in Hayward,Hayward,37.66882,-122.0808,US
562,600,Zika spreads to Plant City,Plant City,28.01888,-82.11469,US
563,601,Chlamydia Exposure in Sanaa,Sanaa,15.35472,44.20667,YE
564,602,Zika Reported in North Miami Beach,North Miami Beach,25.93315,-80.16255,US
565,603,More Patients in Kensington are Getting Diagnosed with Varicella,Kensington,40.64621,-73.97069,US
566,605,Case of West Nile Virus Reported in Riverside,Riverside,33.95335,-117.39616,US
567,606,Northfield Encounters Severe Symptoms of Herpes,Northfield,44.4583,-93.1616,US
568,607,The Spread of Respiratory Syncytial Virus in Monroe has been Confirmed,Monroe,32.50931,-92.1193,US
569,608,How to Avoid Hepatitis B in Trenton,Trenton,40.21705,-74.74294,US
570,609,Zika Reported in Ilopango,Ilopango,13.70167,-89.10944,SV
571,610,Barstow Patient in Critical Condition after Contracting Herpes,Barstow,34.89859,-117.02282,US
572,611,Hepatitis D Exposure in Aswan,Aswan,24.09082,32.89942,EG
573,612,Will Gonorrhea vaccine help East Moline?,East Moline,41.50087,-90.4443,US
574,613,New medicine wipes out Influenza in Redlands,Redlands,34.05557,-117.18254,US
575,614,How to Avoid Contaminated Meat when Visiting Basel,Basel,47.55839,7.57327,CH
576,615,More Zika patients reported in Kampong Speu,Kampong Speu,11.45332,104.52085,KH
577,616,Alameda Residents Recieve Rabies vaccine,Alameda,37.76521,-122.24164,US
578,617,Mad Cow Disease Detected in Lyon,Lyon,45.74846,4.84671,FR
579,618,Memphis Encounters Severe Symptoms of Swine Flu,Memphis,35.14953,-90.04898,US
580,619,Zika Troubles come to Delray Beach,Delray Beach,26.46146,-80.07282,US
581,620,How to Avoid Chikungunya in Hampton,Hampton,37.02987,-76.34522,US
582,621,Zika Reported in Sao Jose,Sao Jose,-28.21171,-49.1632,BR
583,622,Case of Norovirus Reported in Stratford,Stratford,41.18454,-73.13317,US
584,623,How to Avoid Hepatitis E in South Bend,South Bend,41.68338,-86.25001,US
585,624,Hepatitis C Outbreak in Bethlehem,Bethlehem,-28.23078,28.30707,ZA
586,625,Davenport is infested with Dengue,Davenport,41.52364,-90.57764,US
587,626,Rumors about Swine Flu spreading in Suzhou have been refuted,Suzhou,31.30408,120.59538,CN
588,627,Malaria Vaccine is now Required in Elyria,Elyria,41.36838,-82.10765,US
589,629,Case of Swine Flu Reported in Tbilisi,Tbilisi,41.69411,44.83368,GE
590,632,Influenza Keeps Spreading in Suffolk,Suffolk,36.72836,-76.58496,US
591,633,More people in Allentown are infected with Chlamydia every year,Allentown,40.60843,-75.49018,US
592,634,Mad Cow Disease re-emerges in Bedford,Bedford,52.13459,-0.46632,GB
593,635,Authorities are Worried about the Spread of Hepatitis B in Yiwu,Yiwu,29.31506,120.07676,CN
594,636,Zika Outbreak in Yurimaguas,Yurimaguas,-5.90181,-76.12234,PE
595,637,Dengue Outbreak in Easton,Easton,40.68843,-75.22073,US
596,638,Varicella has Arrived in Milton,Milton,43.51681,-79.88294,CA
597,639,New medicine wipes out Meningitis in Sevilla,Sevilla,37.38283,-5.97317,ES
598,640,Authorities are Worried about the Spread of Varicella in Clovis,Clovis,36.82523,-119.70292,US
599,641,More Zika patients reported in Fort Worth,Fort Worth,32.72541,-97.32085,US
600,642,Zika symptoms spotted in Boynton Beach,Boynton Beach,26.52535,-80.06643,US
601,643,Outbreak of Zika in Portoviejo,Portoviejo,-1.05458,-80.45445,EC
602,644,Influenza Exposure in Muscat,Muscat,23.58413,58.40778,OM
603,645,Rumors about Rabies spreading in Jerusalem have been refuted,Jerusalem,31.76904,35.21633,IL
604,646,More Zika patients reported in Indang,Indang,14.19528,120.87694,PH
605,647,Suva authorities confirmed the spread of Rotavirus,Suva,-18.14161,178.44149,FJ
606,648,More Zika patients reported in Bella Vista,Bella Vista,18.45539,-69.9454,DO
607,649,Zika Outbreak in Wichita Falls,Wichita Falls,33.91371,-98.49339,US
